[
  {
    "id": "snow-belt-brew-chardon",
    "name": "Snow Belt Brew",
    "brewery_type": "micro",
    "street": "9511 Kile Rd",
    "address_2": null,
    "address_3": null,
    "city": "Chardon",
    "state": "Ohio",
    "county_province": null,
    "postal_code": "44024",
    "country": "United States",
    "longitude": null,
    "latitude": null,
    "phone": null,
    "website_url": null,
    "updated_at": "2021-10-23T02:24:55.243Z",
    "created_at": "2021-10-23T02:24:55.243Z"
  },
  {
    "id": "brubakers-brewery-and-pub-sylvania",
    "name": "Brubaker's Brewery \u0026 Pub",
    "brewery_type": "planning",
    "street": null,
    "address_2": null,
    "address_3": null,
    "city": "Sylvania",
    "state": "Ohio",
    "county_province": null,
    "postal_code": "43560-9586",
    "country": "United States",
    "longitude": null,
    "latitude": null,
    "phone": null,
    "website_url": null,
    "updated_at": "2021-10-23T02:24:55.243Z",
    "created_at": "2021-10-23T02:24:55.243Z"
  },
  {
    "id": "levitate-mount-victory",
    "name": "Levitate",
    "brewery_type": "planning",
    "street": null,
    "address_2": null,
    "address_3": null,
    "city": "Mount Victory",
    "state": "Ohio",
    "county_province": null,
    "postal_code": "43340-8908",
    "country": "United States",
    "longitude": null,
    "latitude": null,
    "phone": "3133849757",
    "website_url": null,
    "updated_at": "2021-10-23T02:24:55.243Z",
    "created_at": "2021-10-23T02:24:55.243Z"
  },
  {
    "id": "lockport-brewery-bolivar",
    "name": "Lockport Brewery",
    "brewery_type": "brewpub",
    "street": "10891 OH-212",
    "address_2": null,
    "address_3": null,
    "city": "Bolivar",
    "state": "Ohio",
    "county_province": null,
    "postal_code": "44612-8664",
    "country": "United States",
    "longitude": null,
    "latitude": null,
    "phone": "3308746037",
    "website_url": "http://www.lockportbeer.com",
    "updated_at": "2021-10-23T02:24:55.243Z",
    "created_at": "2021-10-23T02:24:55.243Z"
  },
  {
    "id": "paradune-brewing-huntsville",
    "name": "Paradune Brewing",
    "brewery_type": "micro",
    "street": "10551 1/2 County Rd 286",
    "address_2": null,
    "address_3": null,
    "city": "Huntsville",
    "state": "Ohio",
    "county_province": null,
    "postal_code": "43324",
    "country": "United States",
    "longitude": null,
    "latitude": null,
    "phone": null,
    "website_url": null,
    "updated_at": "2021-10-23T02:24:55.243Z",
    "created_at": "2021-10-23T02:24:55.243Z"
  },
  {
    "id": "13-below-brewery-cincinnati",
    "name": "13 Below Brewery",
    "brewery_type": "micro",
    "street": "7391 Forbes Rd",
    "address_2": null,
    "address_3": null,
    "city": "Cincinnati",
    "state": "Ohio",
    "county_province": null,
    "postal_code": "45233-1013",
    "country": "United States",
    "longitude": "-84.70634815",
    "latitude": "39.12639764",
    "phone": "5139750613",
    "website_url": "http://www.13belowbrewery.com",
    "updated_at": "2021-10-23T02:24:55.243Z",
    "created_at": "2021-10-23T02:24:55.243Z"
  },
  {
    "id": "16-lots-brewing-mason",
    "name": "16 Lots Brewing",
    "brewery_type": "brewpub",
    "street": "753 Reading Rd",
    "address_2": null,
    "address_3": null,
    "city": "Mason",
    "state": "Ohio",
    "county_province": null,
    "postal_code": "45040-1303",
    "country": "United States",
    "longitude": "-84.3183801",
    "latitude": "39.3545967",
    "phone": "5134863672",
    "website_url": "http://www.16lots.com",
    "updated_at": "2021-10-23T02:24:55.243Z",
    "created_at": "2021-10-23T02:24:55.243Z"
  },
  {
    "id": "2-tones-brewing-co-whitehall",
    "name": "2 Tones Brewing Co.",
    "brewery_type": "micro",
    "street": "4539 E Broad St",
    "address_2": null,
    "address_3": null,
    "city": "Whitehall",
    "state": "Ohio",
    "county_province": null,
    "postal_code": "43213-1308",
    "country": "United States",
    "longitude": "-82.9118174",
    "latitude": "40.0030689",
    "phone": null,
    "website_url": "http://www.2tonesbrewingco.com",
    "updated_at": "2021-10-23T02:24:55.243Z",
    "created_at": "2021-10-23T02:24:55.243Z"
  },
  {
    "id": "4kd-crick-brewery-defiance",
    "name": "4kd Crick Brewery",
    "brewery_type": "brewpub",
    "street": "211 Carpenter Rd",
    "address_2": null,
    "address_3": null,
    "city": "Defiance",
    "state": "Ohio",
    "county_province": null,
    "postal_code": "43512-1718",
    "country": "United States",
    "longitude": "-84.341647",
    "latitude": "41.296252",
    "phone": "4199562863",
    "website_url": "http://Www.4kdcrickbrewery.com",
    "updated_at": "2021-10-23T02:24:55.243Z",
    "created_at": "2021-10-23T02:24:55.243Z"
  },
  {
    "id": "actual-brewing-company-llc-columbus",
    "name": "Actual Brewing Company, LLC",
    "brewery_type": "micro",
    "street": "655 N James Rd",
    "address_2": null,
    "address_3": null,
    "city": "Columbus",
    "state": "Ohio",
    "county_province": null,
    "postal_code": "43219-1837",
    "country": "United States",
    "longitude": "-82.9080986",
    "latitude": "39.9868523",
    "phone": "6146363825",
    "website_url": "http://wwww.actualbeer.com",
    "updated_at": "2021-10-23T02:24:55.243Z",
    "created_at": "2021-10-23T02:24:55.243Z"
  },
  {
    "id": "akronym-brewing-llc-akron",
    "name": "Akronym Brewing LLC",
    "brewery_type": "micro",
    "street": "58 E Market St",
    "address_2": null,
    "address_3": null,
    "city": "Akron",
    "state": "Ohio",
    "county_province": null,
    "postal_code": "4430",
    "country": "United States",
    "longitude": "-81.51645882",
    "latitude": "41.08512193",
    "phone": "3306208274",
    "website_url": "http://www.akronymbrewing.com",
    "updated_at": "2021-10-23T02:24:55.243Z",
    "created_at": "2021-10-23T02:24:55.243Z"
  },
  {
    "id": "alematic-artisan-ales-huber-heights",
    "name": "Alematic Artisan Ales",
    "brewery_type": "planning",
    "street": null,
    "address_2": null,
    "address_3": null,
    "city": "Huber Heights",
    "state": "Ohio",
    "county_province": null,
    "postal_code": "45424-3857",
    "country": "United States",
    "longitude": null,
    "latitude": null,
    "phone": "9376122337",
    "website_url": "http://www.alematicbrewing.com",
    "updated_at": "2021-10-23T02:24:55.243Z",
    "created_at": "2021-10-23T02:24:55.243Z"
  },
  {
    "id": "anheuser-busch-inc-a-columbus-columbus",
    "name": "Anheuser-Busch Inc Ã¢ Columbus",
    "brewery_type": "large",
    "street": "700 Schrock Rd",
    "address_2": null,
    "address_3": null,
    "city": "Columbus",
    "state": "Ohio",
    "county_province": null,
    "postal_code": "43229-1123",
    "country": "United States",
    "longitude": "-82.99307",
    "latitude": "40.102197",
    "phone": "6148886644",
    "website_url": null,
    "updated_at": "2021-10-23T02:24:55.243Z",
    "created_at": "2021-10-23T02:24:55.243Z"
  },
  {
    "id": "antiques-on-high-columbus",
    "name": "Antiques on High",
    "brewery_type": "micro",
    "street": "714 S High St",
    "address_2": null,
    "address_3": null,
    "city": "Columbus",
    "state": "Ohio",
    "county_province": null,
    "postal_code": "43206",
    "country": "United States",
    "longitude": "-82.99774",
    "latitude": "39.9476",
    "phone": "614-725-2070",
    "website_url": "https://www.antiquesonhigh.com/",
    "updated_at": "2021-10-23T02:24:55.243Z",
    "created_at": "2021-10-23T02:24:55.243Z"
  },
  {
    "id": "aqueduct-brewing-akron",
    "name": "Aqueduct Brewing",
    "brewery_type": "micro",
    "street": "529 Grant St Ste 106",
    "address_2": null,
    "address_3": null,
    "city": "Akron",
    "state": "Ohio",
    "county_province": null,
    "postal_code": "44311-1184",
    "country": "United States",
    "longitude": "-81.51788487",
    "latitude": "41.0698532",
    "phone": "3306066583",
    "website_url": "http://www.aqueductbrewing.shutterfly.com",
    "updated_at": "2021-10-23T02:24:55.243Z",
    "created_at": "2021-10-23T02:24:55.243Z"
  },
  {
    "id": "bad-tom-smith-brewing-cincinnati",
    "name": "Bad Tom Smith Brewing",
    "brewery_type": "micro",
    "street": "4720 Eastern Ave",
    "address_2": null,
    "address_3": null,
    "city": "Cincinnati",
    "state": "Ohio",
    "county_province": null,
    "postal_code": "45226-1893",
    "country": "United States",
    "longitude": "-84.41803086",
    "latitude": "39.11995755",
    "phone": "5138714677",
    "website_url": "http://www.badtomsmithbrewing.com",
    "updated_at": "2021-10-23T02:24:55.243Z",
    "created_at": "2021-10-23T02:24:55.243Z"
  },
  {
    "id": "bad-tom-smith-brewing-cleveland",
    "name": "Bad Tom Smith Brewing",
    "brewery_type": "brewpub",
    "street": "1836 W 25th St",
    "address_2": null,
    "address_3": null,
    "city": "Cleveland",
    "state": "Ohio",
    "county_province": null,
    "postal_code": "44113-3142",
    "country": "United States",
    "longitude": "-81.7051638",
    "latitude": "41.4861772",
    "phone": null,
    "website_url": null,
    "updated_at": "2021-10-23T02:24:55.243Z",
    "created_at": "2021-10-23T02:24:55.243Z"
  },
  {
    "id": "baithouse-brewery-sandusky",
    "name": "Baithouse Brewery",
    "brewery_type": "planning",
    "street": null,
    "address_2": null,
    "address_3": null,
    "city": "Sandusky",
    "state": "Ohio",
    "county_province": null,
    "postal_code": "44870",
    "country": "United States",
    "longitude": null,
    "latitude": null,
    "phone": "4193665372",
    "website_url": "http://www.baithousebrewery.com",
    "updated_at": "2021-10-23T02:24:55.243Z",
    "created_at": "2021-10-23T02:24:55.243Z"
  },
  {
    "id": "bardwell-winery-and-brewery-mount-orab",
    "name": "Bardwell Winery and Brewery",
    "brewery_type": "micro",
    "street": "716 N High St",
    "address_2": null,
    "address_3": null,
    "city": "Mount Orab",
    "state": "Ohio",
    "county_province": null,
    "postal_code": "45154",
    "country": "United States",
    "longitude": "-83.9209789",
    "latitude": "39.0419795",
    "phone": null,
    "website_url": "http://www.bardwellwinery.com",
    "updated_at": "2021-10-23T02:24:55.243Z",
    "created_at": "2021-10-23T02:24:55.243Z"
  },
  {
    "id": "barleys-brewing-company-ale-house-no-1-columbus",
    "name": "Barley's Brewing Company (Ale House No. 1)",
    "brewery_type": "brewpub",
    "street": "467 N High St",
    "address_2": null,
    "address_3": null,
    "city": "Columbus",
    "state": "Ohio",
    "county_province": null,
    "postal_code": "43215-2007",
    "country": "United States",
    "longitude": "-83.0027669",
    "latitude": "39.9719408",
    "phone": "6142282537",
    "website_url": "http://www.barleysbrewing.com",
    "updated_at": "2021-10-23T02:24:55.243Z",
    "created_at": "2021-10-23T02:24:55.243Z"
  }
]
