{
  "breweries": [
    {
      "address_2": null,
      "address_3": null,
      "brewery_type": "large",
      "city": "San Diego",
      "country": "United States",
      "county_province": null,
      "created_at": "2018-07-24T00:00:00.000Z",
      "id": 8041,
      "latitude": "32.714813",
      "longitude": "-117.129593",
      "name": "10 Barrel Brewing Co",
      "obdb_id": "10-barrel-brewing-co-san-diego",
      "phone": "6195782311",
      "postal_code": "92101-6618",
      "state": "California",
      "street": "1501 E St",
      "updated_at": "2018-08-23T00:00:00.000Z",
      "website_url": "http://10barrel.com"
    },
    {
      "address_2": null,
      "address_3": null,
      "brewery_type": "micro",
      "city": "Dummyville",
      "country": "United States",
      "county_province": null,
      "created_at": "2023-05-10T00:00:00.000Z",
      "id": 1001,
      "latitude": "40.123456",
      "longitude": "-75.789012",
      "name": "Sample Brews Co",
      "obdb_id": "sample-brews-co-dummyville",
      "phone": "1234567890",
      "postal_code": "12345-6789",
      "state": "Dummyland",
      "street": "123 Main St",
      "updated_at": "2023-06-15T00:00:00.000Z",
      "website_url": "http://samplebrews.com"
    },
    {
      "address_2": null,
      "address_3": null,
      "brewery_type": "micro",
      "city": "Hopsville",
      "country": "United States",
      "county_province": null,
      "created_at": "2023-08-18T00:00:00.000Z",
      "id": 2002,
      "latitude": "35.678901",
      "longitude": "-90.123456",
      "name": "Hop Haven Brewing",
      "obdb_id": "hop-haven-brewing-hopsville",
      "phone": "9876543210",
      "postal_code": "54321-6789",
      "state": "Hopland",
      "street": "456 Hop Lane",
      "updated_at": "2023-09-22T00:00:00.000Z",
      "website_url": "http://hophavenbrewing.com"
    },
    {
      "address_2": "Suite 300",
      "address_3": null,
      "brewery_type": "brewpub",
      "city": "Craftburg",
      "country": "United States",
      "county_province": null,
      "created_at": "2023-11-05T00:00:00.000Z",
      "id": 3003,
      "latitude": "41.234567",
      "longitude": "-75.678901",
      "name": "Crafty Brews Pub",
      "obdb_id": "crafty-brews-pub-craftburg",
      "phone": "5551234567",
      "postal_code": "98765-4321",
      "state": "Craftsylvania",
      "street": "789 Craft Street",
      "updated_at": "2023-12-10T00:00:00.000Z",
      "website_url": "http://craftybrewspub.com"
    },
    {
      "address_2": null,
      "address_3": null,
      "brewery_type": "regional",
      "city": "Maltfield",
      "country": "United States",
      "county_province": null,
      "created_at": "2024-02-03T00:00:00.000Z",
      "id": 4004,
      "latitude": "38.901234",
      "longitude": "-104.567890",
      "name": "Malt Master Brewing",
      "obdb_id": "malt-master-brewing-maltfield",
      "phone": "7195557890",
      "postal_code": "54321-8765",
      "state": "Maltville",
      "street": "101 Malt Avenue",
      "updated_at": "2024-03-08T00:00:00.000Z",
      "website_url": "http://maltmasterbrewing.com"
    },
    {
      "address_2": null,
      "address_3": null,
      "brewery_type": "regional",
      "city": "Karlshamn",
      "country": "Sweden",
      "county_province": "Blekinge",
      "created_at": "2018-07-24T00:00:00.000Z",
      "id": 5643,
      "latitude": "41.234567",
      "longitude": "-75.678901",
      "name": "Brygghus 19",
      "obdb_id": "crafty-brews-pub-craftburg",
      "phone": "+46 709-191950",
      "postal_code": "37431",
      "state": null,
      "street": "789 Craft Street",
      "updated_at": "2023-12-10T00:00:00.000Z",
      "website_url": "https://brygghus19.se/"
    }
  ]
}
