{
  "breweries": [
    {
      "id": "lockport-brewery-bolivar",
      "name": "Lockport Brewery",
      "brewery_type": "brewpub",
      "street": "10891 OH-212",
      "address_2": null,
      "address_3": null,
      "city": "Bolivar",
      "state": "Ohio",
      "county_province": null,
      "postal_code": "44612-8664",
      "country": "United States",
      "longitude": null,
      "latitude": null,
      "phone": "3308746037",
      "website_url": "http://www.lockportbeer.com",
      "updated_at": "2021-10-23T02:24:55.243Z",
      "created_at": "2021-10-23T02:24:55.243Z"
    },
    {
      "id": "zaftig-brewing-co-columbus",
      "name": "Zaftig Brewing Co.",
      "brewery_type": "micro",
      "street": "7020 Huntley Rd Ste A",
      "address_2": null,
      "address_3": null,
      "city": "Columbus",
      "state": "Ohio",
      "county_province": null,
      "postal_code": "43229-1050",
      "country": "United States",
      "longitude": "-83.0003532",
      "latitude": "40.1063329",
      "phone": "6146362537",
      "website_url": "http://www.drinkzaftig.com",
      "updated_at": "2021-10-23T02:24:55.243Z",
      "created_at": "2021-10-23T02:24:55.243Z"
    },
    {
      "id": "yellow-springs-brewery-yellow-springs",
      "name": "Yellow Springs Brewery",
      "brewery_type": "micro",
      "street": "305 N Walnut St Ste B",
      "address_2": null,
      "address_3": null,
      "city": "Yellow Springs",
      "state": "Ohio",
      "county_province": null,
      "postal_code": "45387-2059",
      "country": "United States",
      "longitude": null,
      "latitude": null,
      "phone": "9377670222",
      "website_url": "http://www.yellowspringsbrewery.com",
      "updated_at": "2021-10-23T02:24:55.243Z",
      "created_at": "2021-10-23T02:24:55.243Z"
    },
    {
      "id": "y-bridge-brewing-company-zanesville",
      "name": "Y Bridge Brewing Company",
      "brewery_type": "micro",
      "street": "1417 Linden Ave",
      "address_2": null,
      "address_3": null,
      "city": "Zanesville",
      "state": "Ohio",
      "county_province": null,
      "postal_code": "43701",
      "country": "United States",
      "longitude": "-82.00422961",
      "latitude": "39.95603429",
      "phone": "7408684265",
      "website_url": null,
      "updated_at": "2021-10-23T02:24:55.243Z",
      "created_at": "2021-10-23T02:24:55.243Z"
    },
    {
      "id": "working-class-brewery-cleveland",
      "name": "Working Class Brewery",
      "brewery_type": "micro",
      "street": "17448 Lorain Ave",
      "address_2": null,
      "address_3": null,
      "city": "Cleveland",
      "state": "Ohio",
      "county_province": null,
      "postal_code": "44111-4028",
      "country": "United States",
      "longitude": "-81.820461",
      "latitude": "41.44993",
      "phone": "2164175112",
      "website_url": "http://www.workingclassbrewery.com",
      "updated_at": "2021-10-23T02:24:55.243Z",
      "created_at": "2021-10-23T02:24:55.243Z"
    },
    {
      "id": "wooly-pig-farm-brewery-fresno",
      "name": "Wooly Pig Farm Brewery",
      "brewery_type": "micro",
      "street": "23631 Township Road 167",
      "address_2": null,
      "address_3": null,
      "city": "Fresno",
      "state": "Ohio",
      "county_province": null,
      "postal_code": "43824-9704",
      "country": "United States",
      "longitude": "-81.73572372",
      "latitude": "40.2914144",
      "phone": "7406935050",
      "website_url": "http://www.woolypigfarmbrewery.com",
      "updated_at": "2021-10-23T02:24:55.243Z",
      "created_at": "2021-10-23T02:24:55.243Z"
    },
    {
      "id": "wolfs-ridge-brewing-columbus",
      "name": "Wolf's Ridge Brewing",
      "brewery_type": "micro",
      "street": "215 N 4th St",
      "address_2": null,
      "address_3": null,
      "city": "Columbus",
      "state": "Ohio",
      "county_province": null,
      "postal_code": "43215-2510",
      "country": "United States",
      "longitude": "-82.99517953",
      "latitude": "39.9577586",
      "phone": "6144293936",
      "website_url": "http://www.wolfsridgebrewing.com",
      "updated_at": "2021-10-23T02:24:55.243Z",
      "created_at": "2021-10-23T02:24:55.243Z"
    },
    {
      "id": "willoughby-brewing-co-willoughby",
      "name": "Willoughby Brewing Co",
      "brewery_type": "brewpub",
      "street": "4057 Erie St",
      "address_2": null,
      "address_3": null,
      "city": "Willoughby",
      "state": "Ohio",
      "county_province": null,
      "postal_code": "44094-7804",
      "country": "United States",
      "longitude": "-81.40548972",
      "latitude": "41.64152155",
      "phone": "4409750202",
      "website_url": "http://www.willoughbybrewing.com",
      "updated_at": "2021-10-23T02:24:55.243Z",
      "created_at": "2021-10-23T02:24:55.243Z"
    },
    {
      "id": "wild-side-brewing-company-grand-rapids",
      "name": "Wild Side Brewing Company",
      "brewery_type": "micro",
      "street": "24194 Front St",
      "address_2": null,
      "address_3": null,
      "city": "Grand Rapids",
      "state": "Ohio",
      "county_province": null,
      "postal_code": "43522",
      "country": "United States",
      "longitude": "-83.86731385",
      "latitude": "41.41253259",
      "phone": "4193892776",
      "website_url": "http://www.wildsidebrewing.com",
      "updated_at": "2021-10-23T02:24:55.243Z",
      "created_at": "2021-10-23T02:24:55.243Z"
    },
    {
      "id": "wiedemann-brewing-co-llc-cincinnati",
      "name": "Wiedemann Brewing Co, LLC",
      "brewery_type": "micro",
      "street": "4811 Vine St",
      "address_2": null,
      "address_3": null,
      "city": "Cincinnati",
      "state": "Ohio",
      "county_province": null,
      "postal_code": "45217-1217",
      "country": "United States",
      "longitude": "-84.4746169",
      "latitude": "39.2072785",
      "phone": "5138009560",
      "website_url": "http://www.wiedemannbeer.com",
      "updated_at": "2021-10-23T02:24:55.243Z",
      "created_at": "2021-10-23T02:24:55.243Z"
    },
    {
      "id": "2-tones-brewing-co-whitehall",
      "name": "2 Tones Brewing Co.",
      "brewery_type": "micro",
      "street": "4539 E Broad St",
      "address_2": null,
      "address_3": null,
      "city": "Whitehall",
      "state": "Ohio",
      "county_province": null,
      "postal_code": "43213-1308",
      "country": "United States",
      "longitude": "-82.9118174",
      "latitude": "40.0030689",
      "phone": null,
      "website_url": "http://www.2tonesbrewingco.com",
      "updated_at": "2021-10-23T02:24:55.243Z",
      "created_at": "2021-10-23T02:24:55.243Z"
    },
    {
      "id": "13-below-brewery-cincinnati",
      "name": "13 Below Brewery",
      "brewery_type": "micro",
      "street": "7391 Forbes Rd",
      "address_2": null,
      "address_3": null,
      "city": "Cincinnati",
      "state": "Ohio",
      "county_province": null,
      "postal_code": "45233-1013",
      "country": "United States",
      "longitude": "-84.70634815",
      "latitude": "39.12639764",
      "phone": "5139750613",
      "website_url": "http://www.13belowbrewery.com",
      "updated_at": "2021-10-23T02:24:55.243Z",
      "created_at": "2021-10-23T02:24:55.243Z"
    },
    {
      "id": "paradune-brewing-huntsville",
      "name": "Paradune Brewing",
      "brewery_type": "micro",
      "street": "10551 1/2 County Rd 286",
      "address_2": null,
      "address_3": null,
      "city": "Huntsville",
      "state": "Ohio",
      "county_province": null,
      "postal_code": "43324",
      "country": "United States",
      "longitude": null,
      "latitude": null,
      "phone": null,
      "website_url": null,
      "updated_at": "2021-10-23T02:24:55.243Z",
      "created_at": "2021-10-23T02:24:55.243Z"
    },
    {
      "id": "snow-belt-brew-chardon",
      "name": "Snow Belt Brew",
      "brewery_type": "micro",
      "street": "9511 Kile Rd",
      "address_2": null,
      "address_3": null,
      "city": "Chardon",
      "state": "Ohio",
      "county_province": null,
      "postal_code": "44024",
      "country": "United States",
      "longitude": null,
      "latitude": null,
      "phone": null,
      "website_url": null,
      "updated_at": "2021-10-23T02:24:55.243Z",
      "created_at": "2021-10-23T02:24:55.243Z"
    },
    {
      "id": "camino-brewing-co-llc-san-jose",
      "name": "Camino Brewing Co LLC",
      "brewery_type": "micro",
      "street": "718 S 1st St",
      "address_2": null,
      "address_3": null,
      "city": "San Jose",
      "state": "California",
      "county_province": null,
      "postal_code": "95113",
      "country": "United States",
      "longitude": "-121.8823478",
      "latitude": "37.32530178",
      "phone": null,
      "website_url": "http://www.caminobrewing.com",
      "updated_at": "2021-10-23T02:24:55.243Z",
      "created_at": "2021-10-23T02:24:55.243Z"
    }
  ]
}